{"type":"Topology","objects":{"cities":{"type":"GeometryCollection","geometries":[{"type":"Point","properties":{"name":"Legazpi","state":"Albay"},"coordinates":[7271,5839]},{"type":"Point","properties":{"name":"Tuguegarao","state":"Cagayan"},"coordinates":[4332,9514]},{"type":"Point","properties":{"name":"Vigan","state":"Ilocos Sur"},"coordinates":[2386,9483]},{"type":"Point","properties":{"name":"Bacolod","state":"Negros Occidental"},"coordinates":[6155,3740]},{"type":"Point","properties":{"name":"Roxas","state":"Capiz"},"coordinates":[5820,4528]},{"type":"Point","properties":{"name":"Puerto Princesa","state":"Palawan"},"coordinates":[0,3014]},{"type":"Point","properties":{"name":"Naga","state":"Camarines Sur"},"coordinates":[6445,6211]},{"type":"Point","properties":{"name":"Angeles","state":"Pampanga"},"coordinates":[2616,7473]},{"type":"Point","properties":{"name":"Batangas","state":"Batangas"},"coordinates":[3308,6345]},{"type":"Point","properties":{"name":"Cotabato","state":"Shariff Kabunsuan"},"coordinates":[7995,915]},{"type":"Point","properties":{"name":"Calbayog","state":"Samar"},"coordinates":[8512,4927]},{"type":"Point","properties":{"name":"Cagayan de Oro","state":"Misamis Oriental"},"coordinates":[8630,1936]},{"type":"Point","properties":{"name":"Zamboanga","state":"Zamboanga del Sur"},"coordinates":[4842,671]},{"type":"Point","properties":{"name":"Laoag","state":"Ilocos Norte"},"coordinates":[2686,9999]},{"type":"Point","properties":{"name":"Baguio City","state":"Benguet"},"coordinates":[2652,8536]},{"type":"Point","properties":{"name":"General Santos","state":"South Cotabato"},"coordinates":[9341,0]},{"type":"Point","properties":{"name":"Cebu","state":"Cebu"},"coordinates":[7486,3483]},{"type":"Point","properties":{"name":"Iloilo","state":"Iloilo"},"coordinates":[5521,3800]},{"type":"Point","properties":{"name":"Davao","state":"Davao Del Sur"},"coordinates":[9999,828]},{"type":"Point","properties":{"name":"Manila","state":"Metropolitan Manila"},"coordinates":[3248,7027]}]}},"arcs":[],"transform":{"scale":[0.0006884354086743257,0.0012089230773711702],"translate":[118.74438397253891,6.110827249064357]}}